country,latitude,longitude,name,no. of accidents
AD,42.546245,1.601554,Andorra,55
AE,23.424076,53.847818,United Arab Emirates,39
AF,33.93911,67.709953,Afghanistan,172
AG,17.060816,-61.796428,Antigua and Barbuda,104
AI,18.220554,-63.068615,Anguilla,173
AL,41.153332,20.168331,Albania,158
AM,40.069099,45.038189,Armenia,101
AN,12.226079,-69.060087,Netherlands Antilles,115
AO,-11.202692,17.873887,Angola,74
AQ,-75.250973,-0.071389,Antarctica,126
AR,-38.416097,-63.616672,Argentina,161
AS,-14.270972,-170.132217,American Samoa,160
AT,47.516231,14.550072,Austria,59
AU,-25.274398,133.775136,Australia,96
AW,12.52111,-69.968338,Aruba,174
AZ,40.143105,47.576927,Azerbaijan,82
BA,43.915886,17.679076,Bosnia and Herzegovina,80
BB,13.193887,-59.543198,Barbados,71
BD,23.684994,90.356331,Bangladesh,39
BE,50.503887,4.469936,Belgium,138
BF,12.238333,-1.561593,Burkina Faso,56
BG,42.733883,25.48583,Bulgaria,23
BH,25.930414,50.637772,Bahrain,196
BI,-3.373056,29.918886,Burundi,44
BJ,9.30769,2.315834,Benin,15
BM,32.321384,-64.75737,Bermuda,87
BN,4.535277,114.727669,Brunei,55
BO,-16.290154,-63.588653,Bolivia,104
BR,-14.235004,-51.92528,Brazil,101
BS,25.03428,-77.39628,Bahamas,14
BT,27.514162,90.433601,Bhutan,102
BV,-54.423199,3.413194,Bouvet Island,71
BW,-22.328474,24.684866,Botswana,71
BY,53.709807,27.953389,Belarus,135
BZ,17.189877,-88.49765,Belize,13
CA,56.130366,-106.346771,Canada,30
CC,-12.164165,96.870956,Cocos [Keeling] Islands,34
CD,-4.038333,21.758664,Congo [DRC],144
CF,6.611111,20.939444,Central African Republic,52
CG,-0.228021,15.827659,Congo [Republic],192
CH,46.818188,8.227512,Switzerland,143
CI,7.539989,-5.54708,Côte d'Ivoire,164
CK,-21.236736,-159.777671,Cook Islands,42
CL,-35.675147,-71.542969,Chile,99
CM,7.369722,12.354722,Cameroon,47
CN,35.86166,104.195397,China,57
CO,4.570868,-74.297333,Colombia,196
CR,9.748917,-83.753428,Costa Rica,169
CU,21.521757,-77.781167,Cuba,39
CV,16.002082,-24.013197,Cape Verde,34
CX,-10.447525,105.690449,Christmas Island,77
CY,35.126413,33.429859,Cyprus,11
CZ,49.817492,15.472962,Czech Republic,146
DE,51.165691,10.451526,Germany,101
DJ,11.825138,42.590275,Djibouti,70
DK,56.26392,9.501785,Denmark,22
DM,15.414999,-61.370976,Dominica,115
DO,18.735693,-70.162651,Dominican Republic,35
DZ,28.033886,1.659626,Algeria,195
EC,-1.831239,-78.183406,Ecuador,15
EE,58.595272,25.013607,Estonia,24
EG,26.820553,30.802498,Egypt,167
EH,24.215527,-12.885834,Western Sahara,191
ER,15.179384,39.782334,Eritrea,14
ES,40.463667,-3.74922,Spain,143
ET,9.145,40.489673,Ethiopia,59
FI,61.92411,25.748151,Finland,17
FJ,-16.578193,179.414413,Fiji,122
FK,-51.796253,-59.523613,Falkland Islands [Islas Malvinas],59
FM,7.425554,150.550812,Micronesia,58
FO,61.892635,-6.911806,Faroe Islands,65
FR,46.227638,2.213749,France,30
GA,-0.803689,11.609444,Gabon,176
GB,55.378051,-3.435973,United Kingdom,129
GD,12.262776,-61.604171,Grenada,188
GE,42.315407,43.356892,Georgia,123
GF,3.933889,-53.125782,French Guiana,149
GG,49.465691,-2.585278,Guernsey,115
GH,7.946527,-1.023194,Ghana,46
GI,36.137741,-5.345374,Gibraltar,43
GL,71.706936,-42.604303,Greenland,180
GM,13.443182,-15.310139,Gambia,86
GN,9.945587,-9.696645,Guinea,42
GP,16.995971,-62.067641,Guadeloupe,23
GQ,1.650801,10.267895,Equatorial Guinea,43
GR,39.074208,21.824312,Greece,81
GS,-54.429579,-36.587909,South Georgia and the South Sandwich Islands,11
GT,15.783471,-90.230759,Guatemala,148
GU,13.444304,144.793731,Guam,180
GW,11.803749,-15.180413,Guinea-Bissau,70
GY,4.860416,-58.93018,Guyana,79
GZ,31.354676,34.308825,Gaza Strip,168
HK,22.396428,114.109497,Hong Kong,97
HM,-53.08181,73.504158,Heard Island and McDonald Islands,195
HN,15.199999,-86.241905,Honduras,99
HR,45.1,15.2,Croatia,42
HT,18.971187,-72.285215,Haiti,76
HU,47.162494,19.503304,Hungary,74
ID,-0.789275,113.921327,Indonesia,37
IE,53.41291,-8.24389,Ireland,22
IL,31.046051,34.851612,Israel,93
IM,54.236107,-4.548056,Isle of Man,118
IN,20.593684,78.96288,India,11
IO,-6.343194,71.876519,British Indian Ocean Territory,177
IQ,33.223191,43.679291,Iraq,38
IR,32.427908,53.688046,Iran,115
IS,64.963051,-19.020835,Iceland,140
IT,41.87194,12.56738,Italy,99
JE,49.214439,-2.13125,Jersey,105
JM,18.109581,-77.297508,Jamaica,140
JO,30.585164,36.238414,Jordan,109
JP,36.204824,138.252924,Japan,139
KE,-0.023559,37.906193,Kenya,127
KG,41.20438,74.766098,Kyrgyzstan,162
KH,12.565679,104.990963,Cambodia,196
KI,-3.370417,-168.734039,Kiribati,197
KM,-11.875001,43.872219,Comoros,184
KN,17.357822,-62.782998,Saint Kitts and Nevis,184
KP,40.339852,127.510093,North Korea,151
KR,35.907757,127.766922,South Korea,35
KW,29.31166,47.481766,Kuwait,166
KY,19.513469,-80.566956,Cayman Islands,123
KZ,48.019573,66.923684,Kazakhstan,39
LA,19.85627,102.495496,Laos,74
LB,33.854721,35.862285,Lebanon,100
LC,13.909444,-60.978893,Saint Lucia,10
LI,47.166,9.555373,Liechtenstein,136
LK,7.873054,80.771797,Sri Lanka,141
LR,6.428055,-9.429499,Liberia,138
LS,-29.609988,28.233608,Lesotho,74
LT,55.169438,23.881275,Lithuania,95
LU,49.815273,6.129583,Luxembourg,166
LV,56.879635,24.603189,Latvia,192
LY,26.3351,17.228331,Libya,53
MA,31.791702,-7.09262,Morocco,145
MC,43.750298,7.412841,Monaco,113
MD,47.411631,28.369885,Moldova,106
ME,42.708678,19.37439,Montenegro,182
MG,-18.766947,46.869107,Madagascar,113
MH,7.131474,171.184478,Marshall Islands,26
MK,41.608635,21.745275,Macedonia [FYROM],77
ML,17.570692,-3.996166,Mali,68
MM,21.913965,95.956223,Myanmar [Burma],124
MN,46.862496,103.846656,Mongolia,172
MO,22.198745,113.543873,Macau,45
MP,17.33083,145.38469,Northern Mariana Islands,27
MQ,14.641528,-61.024174,Martinique,103
MR,21.00789,-10.940835,Mauritania,183
MS,16.742498,-62.187366,Montserrat,185
MT,35.937496,14.375416,Malta,110
MU,-20.348404,57.552152,Mauritius,19
MV,3.202778,73.22068,Maldives,120
MW,-13.254308,34.301525,Malawi,13
MX,23.634501,-102.552784,Mexico,109
MY,4.210484,101.975766,Malaysia,81
MZ,-18.665695,35.529562,Mozambique,29
NA,-22.95764,18.49041,Namibia,116
NC,-20.904305,165.618042,New Caledonia,137
NE,17.607789,8.081666,Niger,176
NF,-29.040835,167.954712,Norfolk Island,37
NG,9.081999,8.675277,Nigeria,185
NI,12.865416,-85.207229,Nicaragua,188
NL,52.132633,5.291266,Netherlands,88
NO,60.472024,8.468946,Norway,34
NP,28.394857,84.124008,Nepal,194
NR,-0.522778,166.931503,Nauru,192
NU,-19.054445,-169.867233,Niue,197
NZ,-40.900557,174.885971,New Zealand,132
OM,21.512583,55.923255,Oman,127
PA,8.537981,-80.782127,Panama,24
PE,-9.189967,-75.015152,Peru,50
PF,-17.679742,-149.406843,French Polynesia,24
PG,-6.314993,143.95555,Papua New Guinea,135
PH,12.879721,121.774017,Philippines,51
PK,30.375321,69.345116,Pakistan,99
PL,51.919438,19.145136,Poland,74
PM,46.941936,-56.27111,Saint Pierre and Miquelon,184
PN,-24.703615,-127.439308,Pitcairn Islands,102
PR,18.220833,-66.590149,Puerto Rico,76
PS,31.952162,35.233154,Palestinian Territories,11
PT,39.399872,-8.224454,Portugal,153
PW,7.51498,134.58252,Palau,152
PY,-23.442503,-58.443832,Paraguay,143
QA,25.354826,51.183884,Qatar,130
RE,-21.115141,55.536384,Réunion,51
RO,45.943161,24.96676,Romania,191
RS,44.016521,21.005859,Serbia,98
RU,61.52401,105.318756,Russia,169
RW,-1.940278,29.873888,Rwanda,37
SA,23.885942,45.079162,Saudi Arabia,162
SB,-9.64571,160.156194,Solomon Islands,30
SC,-4.679574,55.491977,Seychelles,162
SD,12.862807,30.217636,Sudan,179
SE,60.128161,18.643501,Sweden,104
SG,1.352083,103.819836,Singapore,117
SH,-24.143474,-10.030696,Saint Helena,71
SI,46.151241,14.995463,Slovenia,96
SJ,77.553604,23.670272,Svalbard and Jan Mayen,128
SK,48.669026,19.699024,Slovakia,41
SL,8.460555,-11.779889,Sierra Leone,26
SM,43.94236,12.457777,San Marino,30
SN,14.497401,-14.452362,Senegal,15
SO,5.152149,46.199616,Somalia,55
SR,3.919305,-56.027783,Suriname,161
ST,0.18636,6.613081,São Tomé and Príncipe,169
SV,13.794185,-88.89653,El Salvador,75
SY,34.802075,38.996815,Syria,135
SZ,-26.522503,31.465866,Swaziland,26
TC,21.694025,-71.797928,Turks and Caicos Islands,75
TD,15.454166,18.732207,Chad,38
TF,-49.280366,69.348557,French Southern Territories,193
TG,8.619543,0.824782,Togo,127
TH,15.870032,100.992541,Thailand,131
TJ,38.861034,71.276093,Tajikistan,66
TK,-8.967363,-171.855881,Tokelau,66
TL,-8.874217,125.727539,Timor-Leste,82
TM,38.969719,59.556278,Turkmenistan,121
TN,33.886917,9.537499,Tunisia,131
TO,-21.178986,-175.198242,Tonga,145
TR,38.963745,35.243322,Turkey,132
TT,10.691803,-61.222503,Trinidad and Tobago,76
TV,-7.109535,177.64933,Tuvalu,106
TW,23.69781,120.960515,Taiwan,55
TZ,-6.369028,34.888822,Tanzania,180
UA,48.379433,31.16558,Ukraine,182
UG,1.373333,32.290275,Uganda,145
US,37.09024,-95.712891,United States,99
UY,-32.522779,-55.765835,Uruguay,33
UZ,41.377491,64.585262,Uzbekistan,100
VA,41.902916,12.453389,Vatican City,86
VC,12.984305,-61.287228,Saint Vincent and the Grenadines,29
VE,6.42375,-66.58973,Venezuela,105
VG,18.420695,-64.639968,British Virgin Islands,28
VI,18.335765,-64.896335,U.S. Virgin Islands,18
VN,14.058324,108.277199,Vietnam,115
VU,-15.376706,166.959158,Vanuatu,146
WF,-13.768752,-177.156097,Wallis and Futuna,43
WS,-13.759029,-172.104629,Samoa,20
XK,42.602636,20.902977,Kosovo,102
YE,15.552727,48.516388,Yemen,156
YT,-12.8275,45.166244,Mayotte,80
ZA,-30.559482,22.937506,South Africa,20
ZM,-13.133897,27.849332,Zambia,127
ZW,-19.015438,29.154857,Zimbabwe,145